,-nan*11
$PQTMIMU,782333,-0.010614,-0.016348,1.016626,0.420000,-0.857500,-0.297500,0,0*65
$PQTMINS,782337,0,,,,,,,-nan,-nan,-nan*16
$PQTMIMU,782367,-0.010858,-0.015128,1.015650,0.245000,-0.805000,-0.385000,0,0*67
$PQTMINS,782368,0,,,,,,,-nan,-nan,-nan*1C
$PQTMIMU,782398,-0.011712,-0.015006,1.015772,0.332500,-0.892500,-0.385000,0,0*64
$PQTMINS,782399,0,,,,,,,-nan,-nan,-nan*12
$PQTMIMU,782429,-0.010492,-0.014640,1.017236,0.350000,-0.910000,-0.367500,0,0*67
$PQTMINS,782429,0,,,,,,,-nan,-nan,-nan*1E
$PQTMIMU,782458,-0.010248,-0.015006,1.016870,0.332500,-0.927500,-0.297500,0,0*62
$PQTMINS,782460,0,,,,,,,-nan,-nan,-nan*13
$PQTMIMU,782489,-0.010614,-0.016958,1.016382,0.315000,-0.892500,-0.367500,0,0*65
$PQTMINS,782490,0,,,,,,,-nan,-nan,-nan*1C
$PQTMIMU,782520,-0.010858,-0.015860,1.015650,0.280000,-0.892500,-0.315000,0,0*6C
$PQTMINS,782520,0,,,,,,,-nan,-nan,-nan*16
$PQTMIMU,782549,-0.011224,-0.015860,1.015040,0.385000,-0.910000,-0.332500,0,0*6E
$PQTMINS,782550,0,,,,,,,-nan,-nan,-nan*11
$PQTMIMU,782580,-0.011712,-0.015006,1.016992,0.402500,-0.892500,-0.350000,0,0*64
$PQTMINS,782581,0,,,,,,,-nan,-nan,-nan*1D
$PQTMIMU,782611,-0.010492,-0.015250,1.015528,0.385000,-0.892500,-0.297500,0,0*68
$PQTMINS,782611,0,,,,,,,-nan,-nan,-nan*17
$PQTMIMU,782640,-0.011346,-0.016470,1.015406,0.332500,-0.875000,-0.262500,0,0*66
$PQTMINS,782641,0,,,,,,,-nan,-nan,-nan*12
$PQTMIMU,782671,-0.011590,-0.015128,1.016016,0.385000,-0.805000,-0.315000,0,0*6E
$PQTMINS,782671,0,,,,,,,-nan,-nan,-nan*11
$PQTMIMU,782700,-0.011712,-0.014884,1.017724,0.315000,-0.822500,-0.420000,0,0*60
$PQTMINS,782702,0,,,,,,,-nan,-nan,-nan*14
$PQTMIMU,782731,-0.010858,-0.015616,1.017968,0.315000,-0.910000,-0.385000,0,0*6D
$PQTMINS,782732,0,,,,,,,-nan,-nan,-nan*17
$PQTMIMU,782762,-0.010248,-0.014518,1.015162,0.227500,-0.875000,-0.367500,0,0*62
$PQTMINS,782762,0,,,,,,,-nan,-nan,-nan*12
$PQTMIMU,782791,-0.010736,-0.014884,1.016260,0.332500,-0.805000,-0.402500,0,0*6E
$PQTMINS,782792,0,,,,,,,-nan,-nan,-nan*1D
$PQTMIMU,782822,-0.010858,-0.016592,1.015162,0.280000,-0.822500,-0.367500,0,0*6D
$PQTMINS,782823,0,,,,,,,-nan,-nan,-nan*18
$PQTMIMU,782853,-0.011468,-0.015860,1.015772,0.262500,-0.875000,-0.367500,0,0*6F
$PQTMINS,782853,0,,,,,,,-nan,-nan,-nan*1F
$PQTMIMU,782882,-0.010980,-0.015860,1.015162,0.245000,-0.980000,-0.332500,0,0*65
$PQTMINS,782883,0,,,,,,,-nan,-nan,-nan*12
$PQTMIMU,782913,-0.010004,-0.016714,1.015894,0.350000,-0.927500,-0.350000,0,0*6A
$PQTMINS,782915,0,,,,,,,-nan,-nan,-nan*1C
$PQTMIMU,782945,-0.010614,-0.016348,1.016016,0.367500,-0.892500,-0.367500,0,0*6D
$PQTMINS,782953,0,,,,,,,-nan,-nan,-nan*1E
$PQTMGPS,782966,17052.000,37.338342419,-122.013939258,16.0000,44.4531,0.0000,73.5156,1.0000,0.8125,1.4260,1,29,*7D
$GNRMC,044354.00,A,3720.300495,N,12200.836634,W,0.0,73.5,121221,,,A,V*18
$GNGGA,044354.00,3720.300495,N,12200.836634,W,1,21,0.8,44.5,M,-28.5,M,,*7E
$GNGLL,3720.300495,N,12200.836634,W,044354.00,A,A*67
$GPGSV,4,1,11,02,36,184,43,06,60,117,46,12,29,302,34,13,05,201,21,1*60
$GPGSV,4,2,11,14,18,100,42,15,05,229,19,17,31,048,29,19,55,038,46,1*6B
$GPGSV,4,3,11,24,56,281,42,1*5B
$GPGSV,4,4,11,06,60,117,49,24,56,281,48,8*65
$GAGSV,4,1,15,102,34,310,29,103,07,242,30,108,,,18,111,67,096,40,6*47
$GAGSV,4,2,15,112,23,041,29,124,32,106,45,125,74,023,41,136,41,188,39,6*76
$GAGSV,4,3,15,102,34,310,35,103,07,242,23,111,67,096,41,112,23,041,21,1*79
$GAGSV,4,4,15,124,32,106,43,125,74,023,44,136,41,188,42,1*75
$GBGSV,2,1,05,212,18,225,30,224,33,313,30,226,83,280,37,229,26,046,30,1*77
$GBGSV,2,2,05,235,79,043,46,1*7C
$GNGSA,A,3,02,06,12,13,14,15,17,19,24,,,,1.4,0.8,1.2,1*33
$GNGSA,A,3,102,103,111,112,124,125,136,,,,,,1.4,0.8,1.2,3*0A
$GNGSA,A,3,212,224,226,229,235,,,,,,,,1.4,0.8,1.2,4*04
$GNGSA,A,3,,,,,,,,,,,,,1.4,0.8,1.2,5*3B
$GNVTG,73.5,T,,M,0.0,N,0.0,K,A*22
$PQTMIMU,782982,-0.011224,-0.016104,1.016260,0.367500,-0.910000,-0.332500,0,0*67
$PQTMINS,782984,0,,,,,,,-nan,-nan,-nan*14
$PQTMIMU,783013,-0.011712,-0.017324,1.016138,0.420000,-0.787500,-0.402500,0,0*68
$PQTMINS,783016,0,,,,,,,-nan,-nan,-nan*17
$PQTMIMU,783046,-0.011224,-0.015372,1.017724,0.367500,-0.910000,-0.332500,0,0*63
$PQTMINS,783053,0,,,,,,,-nan,-nan,-nan*16
$PQTMIMU,783083,-0.010004,-0.015738,1.015528,0.402500,-0.945000,-0.385000,0,0*60
$PQTMINS,783086,0,,,,,,,-nan,-nan,-nan*1E
$PQTMIMU,783116,-0.010126,-0.016104,1.016016,0.385000,-0.945000,-0.455000,0,0*6A
$PQTMINS,783118,0,,,,,,,-nan,-nan,-nan*18
$PQTMIMU,783148,-0.012688,-0.016104,1.016138,0.227500,-0.910000,-0.402500,0,0*66
$PQTMINS,783156,0,,,,,,,-nan,-nan,-nan*12
$PQTMIMU,783185,-0.012200,-0.013054,1.014186,0.262500,-0.840000,-0.367500,0,0*64
$PQTMINS,783188,0,,,,,,,-nan,-nan,-nan*11
$PQTMIMU,783218,-0.011590,-0.015616,1.014796,0.332500,-0.910000,-0.350000,0,0*6E
$PQTMINS,783220,0,,,,,,,-nan,-nan,-nan*10
$PQTMIMU,783250,-0.010736,-0.017812,1.018334,0.350000,-0.840000,-0.332500,0,0*61
$PQTMINS,783258,0,,,,,,,-nan,-nan,-nan*1F
$PQTMIMU,783288,-0.009394,-0.017202,1.016016,0.332500,-0.910000,-0.367500,0,0*63
$PQTMINS,783290,0,,,,,,,-nan,-nan,-nan*1B
$PQTMIMU,783320,-0.009394,-0.016836,1.016382,0.350000,-0.962500,-0.350000,0,0*62
$PQTMINS,783321,0,,,,,,,-nan,-nan,-nan*10
$PQTMIMU,783351,-0.010004,-0.015616,1.015650,0.350000,-0.980000,-0.367500,0,0*68
$PQTMINS,783355,0,,,,,,,-nan,-nan,-nan*13
$PQTMIMU,783385,-0.009882,-0.016348,1.014796,0.420000,-0.875000,-0.332500,0,0*63
$PQTMINS,783386,0,,,,,,,-nan,-nan,-nan*1D
$PQTMIMU,783416,-0.009760,-0.017202,1.016016,0.542500,-0.892500,-0.402500,0,0*66
$PQTMINS,783416,0,,,,,,,-nan,-nan,-nan*13
$PQTMIMU,783445,-0.007686,-0.016104,1.018334,0.350000,-0.840000,-0.437500,0,0*62
$PQTMINS,783446,0,,,,,,,-nan,-nan,-nan*16
$PQTMIMU,783476,-0.007564,-0.015128,1.018212,0.402500,-0.892500,-0.385000,0,0*61
$PQTMINS,783477,0,,,,,,,-nan,-nan,-nan*14
$PQTMIMU,783507,-0.008296,-0.015250,1.016626,0.402500,-0.822500,-0.385000,0,0*69
$PQTMINS,783507,0,,,,,,,-nan,-nan,-nan*12
$PQTMIMU,783536,-0.009028,-0.017324,1.017968,0.402500,-0.962500,-0.297500,0,0*6B
$PQTMINS,783537,0,,,,,,,-nan,-nan,-nan*11
$PQTMIMU,783567,-0.011468,-0.017690,1.017724,0.472500,-0.910000,-0.385000,0,0*6A
$PQTMINS,783567,0,,,,,,,-nan,-nan,-nan*14
$PQTMIMU,783596,-0.013786,-0.016104,1.016626,0.507500,-0.857500,-0.367500,0,0*61
$PQTMINS,783598,0,,,,,,,-nan,-nan,-nan*14
$PQTMIMU,783627,-0.016104,-0.014152,1.012722,0.437500,-0.857500,-0.350000,0,0*62
$PQTMINS,783628,0,,,,,,,-nan,-nan,-nan*1C
$PQTMIMU,783658,-0.015128,-0.012200,1.012478,0.437500,-0.892500,-0.280000,0,0*6C
$PQTMINS,783658,0,,,,,,,-nan,-nan,-nan*1B
$PQTMIMU,783687,-0.011956,-0.010248,1.013820,0.350000,-0.857500,-0.367500,0,0*62
$PQTMINS,783688,0,,,,,,,-nan,-nan,-nan*16
$PQTMIMU,783718,-0.011468,-0.013420,1.016992,0.332500,-0.927500,-0.420000,0,0*65
$PQTMINS,783719,0,,,,,,,-nan,-nan,-nan*1F
$PQTMIMU,783749,-0.009760,-0.011468,1.015650,0.157500,-0.840000,-0.525000,0,0*6F
$PQTMINS,783749,0,,,,,,,-nan,-nan,-nan*1A
$PQTMIMU,783778,-0.008784,-0.013054,1.016260,0.157500,-0.822500,-0.437500,0,0*6D
$PQTMINS,783779,0,,,,,,,-nan,-nan,-nan*19
$PQTMIMU,783809,-0.008784,-0.014884,1.014552,0.210000,-0.857500,-0.367500,0,0*67
$PQTMINS,783809,0,,,,,,,-nan,-nan,-nan*11
$PQTMIMU,783838,-0.009516,-0.017934,1.017236,0.122500,-0.787500,-0.350000,0,0*66
$PQTMINS,783840,0,,,,,,,-nan,-nan,-nan*1C
$PQTMIMU,783869,-0.010126,-0.019764,1.015772,0.227500,-0.875000,-0.280000,0,0*62
$PQTMINS,783872,0,,,,,,,-nan,-nan,-nan*1D
$PQTMIMU,783901,-0.010614,-0.020862,1.014796,0.315000,-0.927500,-0.297500,0,0*66
$PQTMINS,783904,0,,,,,,,-nan,-nan,-nan*1D
$PQTMGPS,783932,17053.000,37.338342419,-122.013939258,16.0000,44.4531,0.0000,73.5156,1.0000,0.7656,1.4129,1,29,*7E
$GNRMC,044355.00,A,3720.300495,N,12200.836634,W,0.0,73.5,121221,,,A,V*19
$GNGGA,044355.00,3720.300495,N,12200.836634,W,1,21,0.8,44.5,M,-28.5,M,,*7F
$GNGLL,3720.300495,N,12200.836634,W,044355.00,A,A*66
$PQTMIMU,783934,-0.012078,-0.019276,1.015040,0.420000,-0.840000,-0.332500,0,0*6C
$PQTMINS,783935,0,,,,,,,-nan,-nan,-nan*1F
$GPGSV,4,1,11,02,36,184,43,06,60,117,46,12,29,302,34,13,05,201,19,1*6B
$GPGSV,4,2,11,14,18,100,41,15,05,229,19,17,31,048,30,19,55,038,46,1*60
$GPGSV,4,3,11,24,56,281,42,1*5B
$GPGSV,4,4,11,06,60,117,49,24,56,281,47,8*6A
$GAGSV,4,1,15,102,34,310,29,103,07,242,31,108,,,16,111,67,096,41,6*49
$GAGSV,4,2,15,112,23,041,30,124,32,106,45,125,74,023,41,136,41,188,39,6*7E
$GAGSV,4,3,15,102,34,310,34,103,07,242,24,111,67,096,40,112,23,041,20,1*7F
$GAGSV,4,4,15,124,32,106,42,125,74,023,43,136,41,188,41,1*70
$GBGSV,2,1,05,212,18,225,30,224,33,313,31,226,83,280,37,229,26,046,30,1*76
$GBGSV,2,2,05,235,79,043,46,1*7C
$GNGSA,A,3,02,06,12,13,14,15,17,19,24,,,,1.4,0.8,1.2,1*33
$GNGSA,A,3,102,103,111,112,124,125,136,,,,,,1.4,0.8,1.2,3*0A
$GNGSA,A,3,212,224,226,229,235,,,,,,,,1.4,0.8,1.2,4*04
$GNGSA,A,3,,,,,,,,,,,,,1.4,0.8,1.2,5*3B
$GNVTG,73.5,T,,M,0.0,N,0.0,K,A*22
$PQTMIMU,783965,-0.012810,-0.018056,1.016870,0.437500,-0.857500,-0.437500,0,0*65
$PQTMINS,783972,0,,,,,,,-nan,-nan,-nan*1C
$PQTMIMU,784002,-0.013054,-0.016348,1.016626,0.402500,-0.840000,-0.297500,0,0*65
$PQTMINS,784005,0,,,,,,,-nan,-nan,-nan*12
$PQTMIMU,784034,-0.013298,-0.014152,1.017236,0.420000,-0.875000,-0.455000,0,0*63
$PQTMINS,784037,0,,,,,,,-nan,-nan,-nan*13
$PQTMIMU,784067,-0.012322,-0.011712,1.016626,0.437500,-0.857500,-0.455000,0,0*61
$PQTMINS,784074,0,,,,,,,-nan,-nan,-nan*14
$PQTMIMU,784104,-0.010126,-0.010248,1.014308,0.385000,-0.927500,-0.420000,0,0*6E
$PQTMINS,784107,0,,,,,,,-nan,-nan,-nan*11
$PQTMIMU,784137,-0.009028,-0.012566,1.016016,0.297500,-0.892500,-0.350000,0,0*66
$PQTMINS,784139,0,,,,,,,-nan,-nan,-nan*1C
$PQTMIMU,784169,-0.008296,-0.014884,1.018212,0.315000,-0.910000,-0.315000,0,0*65
$PQTMINS,784177,0,,,,,,,-nan,-nan,-nan*16
$PQTMIMU,784206,-0.008418,-0.017690,1.015894,0.262500,-0.857500,-0.297500,0,0*63
$PQTMINS,784209,0,,,,,,,-nan,-nan,-nan*1C
$PQTMIMU,784239,-0.008662,-0.018910,1.017480,0.315000,-0.927500,-0.297500,0,0*61
$PQTMINS,784241,0,,,,,,,-nan,-nan,-nan*10
$PQTMIMU,784270,-0.009516,-0.020008,1.015772,0.315000,-0.857500,-0.350000,0,0*63
$PQTMINS,784279,0,,,,,,,-nan,-nan,-nan*1B
$PQTMIMU,784309,-0.008784,-0.019886,1.016260,0.315000,-0.805000,-0.385000,0,0*6F
$PQTMINS,784311,0,,,,,,,-nan,-nan,-nan*14
$PQTMIMU,784341,-0.010004,-0.015128,1.018212,0.350000,-0.927500,-0.420000,0,0*62
$PQTMINS,784342,0,,,,,,,-nan,-nan,-nan*12
$PQTMIMU,784372,-0.010980,-0.014152,1.016138,0.402500,-0.857500,-0.420000,0,0*6D
$PQTMINS,784376,0,,,,,,,-nan,-nan,-nan*15
$PQTMIMU,784406,-0.010980,-0.014030,1.018456,0.472500,-0.875000,-0.332500,0,0*6C
$PQTMINS,784407,0,,,,,,,-nan,-nan,-nan*14
$PQTMIMU,784437,-0.009272,-0.014884,1.020652,0.350000,-0.892500,-0.350000,0,0*65
$PQTMINS,784437,0,,,,,,,-nan,-nan,-nan*17
$PQTMIMU,784466,-0.010248,-0.013664,1.017236,0.350000,-0.945000,-0.367500,0,0*6A
$PQTMINS,784467,0,,,,,,,-nan,-nan,-nan*12
$PQTMIMU,784497,-0.010248,-0.013298,1.013454,0.280000,-0.892500,-0.332500,0,0*67
$PQTMINS,784498,0,,,,,,,-nan,-nan,-nan*12
$PQTMIMU,784528,-0.010736,-0.014762,1.013210,0.367500,-0.787500,-0.262500,0,0*6D
$PQTMINS,784528,0,,,,,,,-nan,-nan,-nan*18
$PQTMIMU,784557,-0.014396,-0.016470,1.014674,0.367500,-0.910000,-0.297500,0,0*63
$PQTMINS,784558,0,,,,,,,-nan,-nan,-nan*1F
$PQTMIMU,784588,-0.013542,-0.017934,1.016626,0.315000,-0.945000,-0.385000,0,0*67
$PQTMINS,784588,0,,,,,,,-nan,-nan,-nan*12
$PQTMIMU,784617,-0.012322,-0.017080,1.020408,0.315000,-0.822500,-0.315000,0,0*62
$PQTMINS,784619,0,,,,,,,-nan,-nan,-nan*19
$PQTMIMU,784648,-0.011468,-0.017080,1.017602,0.297500,-0.840000,-0.350000,0,0*60
$PQTMINS,784649,0,,,,,,,-nan,-nan,-nan*1C
$PQTMIMU,784679,-0.010492,-0.014884,1.012600,0.367500,-0.927500,-0.350000,0,0*65
$PQTMINS,784679,0,,,,,,,-nan,-nan,-nan*1F
$PQTMIMU,784708,-0.011346,-0.016592,1.016626,0.385000,-0.945000,-0.455000,0,0*6F
$PQTMINS,784709,0,,,,,,,-nan,-nan,-nan*19
$PQTMIMU,784739,-0.010248,-0.017812,1.017236,0.402500,-0.962500,-0.350000,0,0*6C
$PQTMINS,784740,0,,,,,,,-nan,-nan,-nan*14
$PQTMIMU,784770,-0.009516,-0.015738,1.014796,0.402500,-0.962500,-0.385000,0,0*64
$PQTMINS,784770,0,,,,,,,-nan,-nan,-nan*17
$PQTMIMU,784799,-0.010370,-0.016104,1.014674,0.402500,-0.980000,-0.350000,0,0*6B
$PQTMINS,784800,0,,,,,,,-nan,-nan,-nan*1F
$PQTMIMU,784830,-0.008540,-0.014152,1.015528,0.402500,-0.892500,-0.385000,0,0*6E
$PQTMINS,784830,0,,,,,,,-nan,-nan,-nan*1C
$PQTMIMU,784859,-0.008784,-0.015372,1.016870,0.350000,-0.805000,-0.367500,0,0*6E
$PQTMINS,784861,0,,,,,,,-nan,-nan,-nan*18
$PQTMIMU,784890,-0.008540,-0.013908,1.017114,0.367500,-0.822500,-0.297500,0,0*65
$PQTMINS,784891,0,,,,,,,-nan,-nan,-nan*17
$PQTMIMU,784921,-0.010492,-0.013664,1.013698,0.315000,-0.892500,-0.350000,0,0*6F
$PQTMINS,784923,0,,,,,,,-nan,-nan,-nan*1F
$PQTMIMU,784953,-0.013420,-0.014518,1.016016,0.297500,-0.892500,-0.332500,0,0*65
$PQTMINS,784955,0,,,,,,,-nan,-nan,-nan*1E
$PQTMGPS,784961,17054.000,37.338342419,-122.013939258,16.0000,44.4531,0.0000,73.5156,1.0000,0.8125,1.4648,1,28,*75
$GNRMC,044356.00,A,3720.300495,N,12200.836641,W,0.0,73.5,121221,,,A,V*18
$GNGGA,044356.00,3720.300495,N,12200.836641,W,1,20,0.8,44.5,M,-28.5,M,,*7F
$GNGLL,3720.300495,N,12200.836641,W,044356.00,A,A*67
$GPGSV,4,1,11,02,36,184,43,06,60,117,46,12,29,302,34,13,05,201,20,1*61
$GPGSV,4,2,11,14,18,100,41,15,05,229,20,17,31,048,30,19,55,038,46,1*6A
$GPGSV,4,3,11,24,56,281,42,1*5B
$GPGSV,4,4,11,06,60,117,49,24,56,281,47,8*6A
$GAGSV,4,1,15,102,34,310,29,103,07,242,31,108,,,13,111,67,096,41,6*4C
$GAGSV,4,2,15,112,23,041,29,124,32,106,45,125,74,023,41,136,41,188,39,6*76
$GAGSV,4,3,15,102,34,310,35,103,07,242,28,111,67,096,40,112,23,041,19,1*78
$GAGSV,4,4,15,124,32,106,42,125,74,023,43,136,41,188,41,1*70
$GBGSV,2,1,05,212,18,225,30,224,33,313,31,226,83,280,37,229,26,046,31,1*77
$GBGSV,2,2,05,235,79,043,46,1*7C
$GNGSA,A,3,02,06,12,14,15,17,19,24,,,,,1.5,0.8,1.2,1*30
$GNGSA,A,3,102,103,111,112,124,125,136,,,,,,1.5,0.8,1.2,3*0B
$GNGSA,A,3,212,224,226,229,235,,,,,,,,1.5,0.8,1.2,4*05
$GNGSA,A,3,,,,,,,,,,,,,1.5,0.8,1.2,5*3A
$GNVTG,73.5,T,,M,0.0,N,0.0,K,A*22
$PQTMIMU,784984,-0.012932,-0.015860,1.015772,0.315000,-0.910000,-0.332500,0,0*65
$PQTMINS,784992,0,,,,,,,-nan,-nan,-nan*15
$PQTMIMU,785023,-0.012444,-0.017446,1.016260,0.262500,-0.910000,-0.297500,0,0*69
$PQTMINS,785025,0,,,,,,,-nan,-nan,-nan*11
$PQTMIMU,785054,-0.010980,-0.016592,1.018822,0.297500,-0.822500,-0.367500,0,0*64
$PQTMINS,785057,0,,,,,,,-nan,-nan,-nan*14
$PQTMIMU,785086,-0.009394,-0.015372,1.016748,0.437500,-0.927500,-0.385000,0,0*6B
$PQTMINS,785094,0,,,,,,,-nan,-nan,-nan*1B
$PQTMIMU,785125,-0.006222,-0.017568,1.014430,0.297500,-0.875000,-0.420000,0,0*66
$PQTMINS,785127,0,,,,,,,-nan,-nan,-nan*12
$PQTMIMU,785156,-0.009638,-0.014640,1.016504,0.420000,-0.892500,-0.402500,0,0*6A
$PQTMINS,785159,0,,,,,,,-nan,-nan,-nan*1B
$PQTMIMU,785189,-0.009638,-0.016470,1.016748,0.280000,-0.892500,-0.385000,0,0*60
$PQTMINS,785197,0,,,,,,,-nan,-nan,-nan*19
$PQTMIMU,785226,-0.011590,-0.012322,1.016382,0.367500,-0.822500,-0.262500,0,0*63
$PQTMINS,785229,0,,,,,,,-nan,-nan,-nan*1F
$PQTMIMU,785258,-0.012932,-0.013664,1.016992,0.350000,-0.875000,-0.367500,0,0*62
$PQTMINS,785260,0,,,,,,,-nan,-nan,-nan*12
$PQTMIMU,785289,-0.011224,-0.014274,1.016748,0.350000,-0.962500,-0.350000,0,0*69
$PQTMINS,785298,0,,,,,,,-nan,-nan,-nan*15
$PQTMIMU,785328,-0.012200,-0.016348,1.018822,0.297500,-0.840000,-0.332500,0,0*6D
$PQTMINS,785329,0,,,,,,,-nan,-nan,-nan*1E
$PQTMIMU,785359,-0.010492,-0.015616,1.015772,0.297500,-0.945000,-0.315000,0,0*6A
$PQTMINS,785360,0,,,,,,,-nan,-nan,-nan*13
$PQTMIMU,785390,-0.009882,-0.016836,1.012844,0.315000,-0.875000,-0.332500,0,0*64
$PQTMINS,785394,0,,,,,,,-nan,-nan,-nan*18
$PQTMIMU,785424,-0.010980,-0.016836,1.016626,0.280000,-0.875000,-0.490000,0,0*6E
$PQTMINS,785424,0,,,,,,,-nan,-nan,-nan*14
$PQTMIMU,785453,-0.008784,-0.017324,1.017724,0.402500,-0.857500,-0.367500,0,0*60
$PQTMINS,785454,0,,,,,,,-nan,-nan,-nan*13
$PQTMIMU,785484,-0.008906,-0.016104,1.012966,0.297500,-0.927500,-0.332500,0,0*6E
$PQTMINS,785484,0,,,,,,,-nan,-nan,-nan*1E
$PQTMIMU,785513,-0.009516,-0.015494,1.015772,0.402500,-0.840000,-0.350000,0,0*60
$PQTMINS,785515,0,,,,,,,-nan,-nan,-nan*17
$PQTMIMU,785544,-0.010614,-0.015860,1.014430,0.350000,-0.875000,-0.332500,0,0*6A
$PQTMINS,785545,0,,,,,,,-nan,-nan,-nan*12
$PQTMIMU,785575,-0.011468,-0.014762,1.015894,0.350000,-0.857500,-0.315000,0,0*6A
$PQTMINS,785575,0,,,,,,,-nan,-nan,-nan*11
$PQTMIMU,785604,-0.011956,-0.016348,1.017236,0.332500,-0.857500,-0.332500,0,0*60
$PQTMINS,785605,0,,,,,,,-nan,-nan,-nan*15
$PQTMIMU,785635,-0.012200,-0.014152,1.014308,0.402500,-0.840000,-0.402500,0,0*6E
$PQTMINS,785636,0,,,,,,,-nan,-nan,-nan*15
$PQTMIMU,785666,-0.011834,-0.015494,1.017114,0.315000,-0.875000,-0.297500,0,0*6C
$PQTMINS,785666,0,,,,,,,-nan,-nan,-nan*10
$PQTMIMU,785695,-0.010492,-0.016348,1.020164,0.367500,-0.892500,-0.315000,0,0*65
$PQTMINS,785696,0,,,,,,,-nan,-nan,-nan*1F
$PQTMIMU,785726,-0.008784,-0.016592,1.018700,0.385000,-0.892500,-0.385000,0,0*6F
$PQTMINS,785726,0,,,,,,,-nan,-nan,-nan*15
$PQTMIMU,785755,-0.009516,-0.017690,1.016992,0.332500,-0.875000,-0.280000,0,0*69
$PQTMINS,785757,0,,,,,,,-nan,-nan,-nan*13
$PQTMIMU,785786,-0.009760,-0.015616,1.014674,0.367500,-0.840000,-0.367500,0,0*66
$PQTMINS,785787,0,,,,,,,-nan,-nan,-nan*1E
$PQTMIMU,785817,-0.009760,-0.016104,1.013576,0.315000,-0.875000,-0.350000,0,0*67
$PQTMINS,785817,0,,,,,,,-nan,-nan,-nan*18
$PQTMIMU,785846,-0.011712,-0.014884,1.014796,0.367500,-0.857500,-0.332500,0,0*63
$PQTMINS,785847,0,,,,,,,-nan,-nan,-nan*1D
$PQTMIMU,785877,-0.010980,-0.015250,1.015284,0.385000,-0.857500,-0.350000,0,0*68
$PQTMINS,785885,0,,,,,,,-nan,-nan,-nan*13
$PQTMIMU,785914,-0.011346,-0.015860,1.017846,0.367500,-0.857500,-0.367500,0,0*6A
$PQTMINS,785917,0,,,,,,,-nan,-nan,-nan*19
$PQTMGPS,785924,17055.000,37.338342419,-122.013939258,16.0000,44.4531,0.0000,73.5156,1.0000,0.7656,1.4129,1,28,*78
$GNRMC,044357.00,A,3720.300495,N,12200.836641,W,0.0,73.5,121221,,,A,V*19
$GNGGA,044357.00,3720.300495,N,12200.836641,W,1,20,0.8,44.5,M,-28.5,M,,*7E
$GNGLL,3720.300495,N,12200.836641,W,044357.00,A,A*66
$GPGSV,4,1,11,02,36,184,43,06,60,117,45,12,29,302,34,13,05,201,18,1*69
$GPGSV,4,2,11,14,18,100,41,15,05,229,15,17,31,048,30,19,55,038,45,1*6F
$GPGSV,4,3,11,24,56,281,41,1*58
$GPGSV,4,4,11,06,60,117,49,24,56,281,47,8*6A
$GAGSV,4,1,15,102,34,310,29,103,07,242,31,108,,,15,111,67,096,41,6*4A
$GAGSV,4,2,15,112,23,041,29,124,32,106,45,125,74,023,42,136,41,188,38,6*74
$GAGSV,4,3,15,102,34,310,34,103,07,242,23,111,67,096,40,112,23,041,20,1*78
$GAGSV,4,4,15,124,32,106,42,125,74,023,43,136,41,188,41,1*70
$GBGSV,2,1,05,212,18,225,31,224,33,313,31,226,83,280,37,229,26,046,31,1*76
$GBGSV,2,2,05,235,79,043,46,1*7C
$GNGSA,A,3,02,06,12,13,14,17,19,24,,,,,1.4,0.8,1.2,1*37
$GNGSA,A,3,102,103,111,112,124,125,136,,,,,,1.4,0.8,1.2,3*0A
$GNGSA,A,3,212,224,226,229,235,,,,,,,,1.4,0.8,1.2,4*04
$GNGSA,A,3,,,,,,,,,,,,,1.4,0.8,1.2,5*3B
$GNVTG,73.5,T,,M,0.0,N,0.0,K,A*22
$PQTMIMU,785947,-0.010858,-0.015250,1.018700,0.227500,-0.892500,-0.332500,0,0*6E
$PQTMINS,785949,0,,,,,,,-nan,-nan,-nan*12
$PQTMIMU,785979,-0.009760,-0.015616,1.017236,0.192500,-0.822500,-0.332500,0,0*60
$PQTMINS,785987,0,,,,,,,-nan,-nan,-nan*10
$PQTMIMU,786017,-0.011468,-0.016104,1.016504,0.332500,-0.875000,-0.367500,0,0*6F
$PQTMINS,786019,0,,,,,,,-nan,-nan,-nan*1D
$PQTMIMU,786049,-0.010248,-0.015738,1.016626,0.367500,-0.962500,-0.420000,0,0*6B
$PQTMINS,786051,0,,,,,,,-nan,-nan,-nan*11
$PQTMIMU,786080,-0.011468,-0.016592,1.013576,0.385000,-0.857500,-0.402500,0,0*62
$PQTMINS,786088,0,,,,,,,-nan,-nan,-nan*15
$PQTMIMU,786119,-0.010980,-0.016104,1.015406,0.297500,-0.840000,-0.367500,0,0*62
$PQTMINS,786121,0,,,,,,,-nan,-nan,-nan*17
$PQTMIMU,786151,-0.010492,-0.016226,1.015406,0.367500,-0.787500,-0.367500,0,0*6C
$PQTMINS,786153,0,,,,,,,-nan,-nan,-nan*12
$PQTMIMU,786182,-0.009760,-0.017568,1.014430,0.367500,-0.857500,-0.420000,0,0*6F
$PQTMINS,786191,0,,,,,,,-nan,-nan,-nan*1C
$PQTMIMU,786221,-0.011346,-0.015982,1.018334,0.315000,-0.875000,-0.350000,0,0*6C
$PQTMINS,786223,0,,,,,,,-nan,-nan,-nan*16
$PQTMIMU,786252,-0.011346,-0.014884,1.016016,0.420000,-0.857500,-0.402500,0,0*62
$PQTMINS,786255,0,,,,,,,-nan,-nan,-nan*17
$PQTMIMU,786284,-0.011102,-0.015250,1.015284,0.385000,-0.910000,-0.350000,0,0*69
$PQTMINS,786293,0,,,,,,,-nan,-nan,-nan*1D
$PQTMIMU,786322,-0.010370,-0.014884,1.016992,0.280000,-0.910000,-0.420000,0,0*6B
$PQTMINS,786324,0,,,,,,,-nan,-nan,-nan*10
$PQTMIMU,786354,-0.010248,-0.015860,1.014064,0.350000,-0.840000,-0.315000,0,0*60
$PQTMINS,786355,0,,,,,,,-nan,-nan,-nan*16
$PQTMIMU,786385,-0.011956,-0.013908,1.014552,0.297500,-0.910000,-0.367500,0,0*6B
$PQTMINS,786389,0,,,,,,,-nan,-nan,-nan*17
$PQTMIMU,786419,-0.045384,-0.014030,1.012600,0.560000,-0.875000,-0.245000,0,0*66
$PQTMINS,786419,0,,,,,,,-nan,-nan,-nan*19
$PQTMIMU,786448,-0.055022,-0.001830,1.010282,0.507500,-0.647500,-0.192500,0,0*6E
$PQTMINS,786449,0,,,,,,,-nan,-nan,-nan*1C
$PQTMIMU,786479,-0.074054,-0.005612,1.007720,0.542500,-0.402500,-0.210000,0,0*61
$PQTMINS,786479,0,,,,,,,-nan,-nan,-nan*1F
$PQTMIMU,786508,-0.074176,-0.012200,1.018456,0.507500,-0.332500,-0.087500,0,0*66
$PQTMINS,786510,0,,,,,,,-nan,-nan,-nan*11
$PQTMIMU,786539,-0.070760,-0.010248,1.015284,0.350000,-0.367500,-0.052500,0,0*62
$PQTMINS,786540,0,,,,,,,-nan,-nan,-nan*14
$PQTMIMU,786570,-0.074664,-0.006466,1.017602,0.332500,-0.420000,0.000000,0,0*44
$PQTMINS,786570,0,,,,,,,-nan,-nan,-nan*17
$PQTMIMU,786599,-0.070150,-0.008906,1.014918,0.367500,-0.420000,-0.052500,0,0*6A
$PQTMINS,786600,0,,,,,,,-nan,-nan,-nan*13
$PQTMIMU,786630,-0.072712,-0.006344,1.015894,0.402500,-0.665000,-0.070000,0,0*6C
$PQTMINS,786631,0,,,,,,,-nan,-nan,-nan*11
$PQTMIMU,786661,-0.076006,-0.006710,1.015162,0.472500,-0.735000,-0.087500,0,0*65
$PQTMINS,786661,0,,,,,,,-nan,-nan,-nan*14
$PQTMIMU,786690,-0.071980,-0.005978,1.018944,0.490000,-0.700000,0.000000,0,0*41
$PQTMINS,786691,0,,,,,,,-nan,-nan,-nan*1B
$PQTMIMU,786721,-0.077714,-0.007198,1.015284,0.455000,-0.910000,0.105000,0,0*43
$PQTMINS,786721,0,,,,,,,-nan,-nan,-nan*11
$PQTMIMU,786750,-0.072468,-0.007076,1.018944,0.297500,-0.840000,0.315000,0,0*49
$PQTMINS,786752,0,,,,,,,-nan,-nan,-nan*15
$PQTMIMU,786781,-0.074420,-0.003904,1.015528,0.315000,-0.892500,0.350000,0,0*49
$PQTMINS,786782,0,,,,,,,-nan,-nan,-nan*18
$PQTMIMU,786812,-0.076982,-0.005734,1.018334,0.385000,-0.875000,0.472500,0,0*41
$PQTMINS,786812,0,,,,,,,-nan,-nan,-nan*1E
$PQTMIMU,786841,-0.071980,-0.004026,1.019066,0.402500,-0.805000,0.542500,0,0*4A
$PQTMINS,786842,0,,,,,,,-nan,-nan,-nan*1B
$PQTMIMU,786872,-0.076250,-0.004026,1.014308,0.332500,-0.840000,0.490000,0,0*43
$PQTMINS,786873,0,,,,,,,-nan,-nan,-nan*19
$PQTMIMU,786903,-0.074908,-0.007564,1.012112,0.367500,-0.857500,0.525000,0,0*43
$PQTMINS,786905,0,,,,,,,-nan,-nan,-nan*19
$PQTMIMU,786934,-0.070394,-0.007686,1.013942,0.315000,-0.892500,0.560000,0,0*47
$PQTMINS,786937,0,,,,,,,-nan,-nan,-nan*18
$PQTMGPS,786952,17056.000,37.338342419,-122.013939258,16.0000,44.4531,0.0000,73.5156,1.0000,0.8125,1.4648,1,27,*7A
$GNRMC,044358.00,A,3720.300495,N,12200.836648,W,0.0,73.5,121221,,,A,V*1F
$GNGGA,044358.00,3720.300495,N,12200.836648,W,1,19,0.8,44.5,M,-28.5,M,,*72
$GNGLL,3720.300495,N,12200.836648,W,044358.00,A,A*60
$GPGSV,4,1,11,02,36,184,43,06,60,117,46,12,29,302,34,13,05,201,19,1*6B
$GPGSV,4,2,11,14,18,100,41,15,05,229,14,17,31,048,30,19,55,038,45,1*6E
$GPGSV,4,3,11,24,56,281,42,1*5B
$GPGSV,4,4,11,06,60,117,49,24,56,281,47,8*6A
$GAGSV,4,1,15,102,34,310,30,103,07,242,31,108,,,12,111,67,096,41,6*45
$GAGSV,4,2,15,112,23,041,29,124,32,106,45,125,74,023,42,136,41,188,39,6*75
$GAGSV,4,3,15,102,34,310,35,103,07,242,22,111,67,096,40,112,23,041,20,1*78
$GAGSV,4,4,15,124,32,106,42,125,74,023,43,136,41,188,41,1*70
$GBGSV,2,1,05,212,18,225,31,224,33,313,31,226,83,280,37,229,26,046,32,1*75
$GBGSV,2,2,05,235,79,043,46,1*7C
$GNGSA,A,3,02,06,12,14,17,19,24,,,,,,1.5,0.8,1.2,1*34
$GNGSA,A,3,102,103,111,112,124,125,136,,,,,,1.5,0.8,1.2,3*0B
$GNGSA,A,3,212,224,226,229,235,,,,,,,,1.5,0.8,1.2,4*05
$GNGSA,A,3,,,,,,,,,,,,,1.5,0.8,1.2,5*3A
$GNVTG,73.5,T,,M,0.0,N,0.0,K,A*22
$PQTMIMU,786966,-0.064904,-0.009394,1.016504,0.280000,-0.805000,0.560000,0,0*43
$PQTMINS,786968,0,,,,,,,-nan,-nan,-nan*12
$PQTMIMU,786997,-0.054900,-0.008784,1.016504,0.280000,-0.857500,0.700000,0,0*48
$PQTMINS,787006,0,,,,,,,-nan,-nan,-nan*12
$PQTMIMU,787036,-0.041358,-0.011712,1.019676,0.297500,-0.962500,0.700000,0,0*42
$PQTMINS,787038,0,,,,,,,-nan,-nan,-nan*1F
$PQTMIMU,787067,-0.032452,-0.012688,1.016504,0.297500,-0.962500,0.717500,0,0*44
$PQTMINS,787070,0,,,,,,,-nan,-nan,-nan*13
$PQTMIMU,787099,-0.031964,-0.010858,1.015772,0.262500,-1.155000,0.717500,0,0*4D
$PQTMINS,787107,0,,,,,,,-nan,-nan,-nan*12
$PQTMIMU,787138,-0.028792,-0.010492,1.015772,0.315000,-1.172500,0.717500,0,0*46
$PQTMINS,787140,0,,,,,,,-nan,-nan,-nan*11
$PQTMIMU,787169,-0.027450,-0.014274,1.017480,0.315000,-1.102500,0.840000,0,0*49
$PQTMINS,787172,0,,,,,,,-nan,-nan,-nan*10
$PQTMIMU,787202,-0.023302,-0.015738,1.016260,0.227500,-1.085000,0.822500,0,0*49
$PQTMINS,787210,0,,,,,,,-nan,-nan,-nan*17
$PQTMIMU,787239,-0.020740,-0.015372,1.013698,0.315000,-1.015000,0.805000,0,0*40
$PQTMINS,787242,0,,,,,,,-nan,-nan,-nan*10
$PQTMIMU,787271,-0.017324,-0.015860,1.014064,0.315000,-1.015000,0.840000,0,0*45
$PQTMINS,787274,0,,,,,,,-nan,-nan,-nan*15
$PQTMIMU,787304,-0.015372,-0.013420,1.012966,0.350000,-0.927500,0.805000,0,0*48
$PQTMINS,787312,0,,,,,,,-nan,-nan,-nan*14
$PQTMIMU,787341,-0.016836,-0.015372,1.012478,0.367500,-0.945000,0.840000,0,0*44
$PQTMINS,787343,0,,,,,,,-nan,-nan,-nan*10
$PQTMIMU,787372,-0.015860,-0.012688,1.009672,0.472500,-0.805000,0.962500,0,0*43
$PQTMINS,787374,0,,,,,,,-nan,-nan,-nan*14
$PQTMIMU,787403,-0.021106,-0.014396,1.013454,0.490000,-0.770000,0.910000,0,0*49
$PQTMINS,787405,0,,,,,,,-nan,-nan,-nan*15
$PQTMIMU,787434,-0.018544,-0.014884,1.015040,0.542500,-0.787500,0.962500,0,0*4C
$PQTMINS,787436,0,,,,,,,-nan,-nan,-nan*15
$PQTMIMU,787466,-0.018300,-0.020008,1.020530,0.332500,-0.980000,0.892500,0,0*41
$PQTMINS,787466,0,,,,,,,-nan,-nan,-nan*10
$PQTMIMU,787495,-0.017690,-0.016592,1.021140,0.507500,-0.857500,0.927500,0,0*4E
$PQTMINS,787496,0,,,,,,,-nan,-nan,-nan*1F
$PQTMIMU,787526,-0.017080,-0.012200,1.014186,0.332500,-0.892500,0.840000,0,0*48
$PQTMINS,787526,0,,,,,,,-nan,-nan,-nan*15
$PQTMIMU,787556,-0.018666,-0.011834,1.014064,0.402500,-0.910000,0.857500,0,0*44
$PQTMINS,787557,0,,,,,,,-nan,-nan,-nan*13
$PQTMIMU,787586,-0.018056,-0.013298,1.014796,0.420000,-0.892500,0.945000,0,0*44
$PQTMINS,787587,0,,,,,,,-nan,-nan,-nan*1E
$PQTMIMU,787617,-0.017080,-0.011712,1.015772,0.472500,-0.752500,0.945000,0,0*44
$PQTMINS,787617,0,,,,,,,-nan,-nan,-nan*14
$PQTMIMU,787646,-0.018056,-0.017446,1.014064,0.315000,-0.840000,0.980000,0,0*42
$PQTMINS,787647,0,,,,,,,-nan,-nan,-nan*11
$PQTMIMU,787677,-0.016836,-0.017202,1.019310,0.402500,-0.805000,1.032500,0,0*4A
$PQTMINS,787678,0,,,,,,,-nan,-nan,-nan*1D
$PQTMIMU,787708,-0.016714,-0.009272,1.017236,0.402500,-0.857500,0.997500,0,0*4A
$PQTMINS,787708,0,,,,,,,-nan,-nan,-nan*1B
$PQTMIMU,787737,-0.017812,-0.007808,1.014064,0.525000,-0.805000,1.155000,0,0*40
$PQTMINS,787738,0,,,,,,,-nan,-nan,-nan*18
$PQTMIMU,787768,-0.019764,-0.015372,1.016626,0.560000,-0.805000,1.015000,0,0*49
$PQTMINS,787768,0,,,,,,,-nan,-nan,-nan*1D
$PQTMIMU,787797,-0.017324,-0.016836,1.017236,0.437500,-0.875000,1.067500,0,0*4A
$PQTMINS,787799,0,,,,,,,-nan,-nan,-nan*13
$PQTMIMU,787828,-0.016226,-0.014152,1.017236,0.402500,-0.787500,1.102500,0,0*49
$PQTMINS,787829,0,,,,,,,-nan,-nan,-nan*17
$PQTMIMU,787859,-0.015128,-0.011468,1.017968,0.490000,-0.717500,1.085000,0,0*44
$PQTMINS,787859,0,,,,,,,-nan,-nan,-nan*10
$PQTMIMU,787888,-0.013420,-0.012932,1.015528,0.140000,-0.910000,1.067500,0,0*45
$PQTMINS,787891,0,,,,,,,-nan,-nan,-nan*14
$PQTMIMU,787921,-0.011468,-0.006832,1.011380,0.297500,-0.997500,0.997500,0,0*4C
$PQTMINS,787929,0,,,,,,,-nan,-nan,-nan*16
$PQTMGPS,787942,17057.000,37.338342419,-122.013952918,16.0000,44.4531,0.1929,73.5156,1.0000,0.7656,1.4129,1,28,*79
$GNRMC,044359.00,A,3720.300509,N,12200.836799,W,0.4,73.5,121221,,,A,V*13
$GNGGA,044359.00,3720.300509,N,12200.836799,W,1,20,0.8,44.5,M,-28.5,M,,*70
$GNGLL,3720.300509,N,12200.836799,W,044359.00,A,A*68
$GPGSV,4,1,11,02,36,184,43,06,60,117,45,12,29,302,34,13,05,201,20,1*62
$GPGSV,4,2,11,14,18,100,40,15,05,229,14,17,31,049,33,19,55,038,45,1*6D
$GPGSV,4,3,11,24,56,281,42,1*5B
$GPGSV,4,4,11,06,60,117,49,24,56,281,47,8*6A
$GAGSV,4,1,15,102,34,310,29,103,07,242,33,108,,,15,111,67,096,42,6*4B
$GAGSV,4,2,15,112,23,041,28,124,32,106,45,125,74,023,41,136,41,188,38,6*76
$GAGSV,4,3,15,102,34,310,33,103,07,242,24,111,67,096,40,112,23,041,18,1*73
$GAGSV,4,4,15,124,32,106,42,125,74,023,43,136,41,188,42,1*73
$GBGSV,2,1,05,212,18,225,33,224,33,313,29,226,83,280,38,229,26,046,30,1*73
$GBGSV,2,2,05,235,79,043,46,1*7C
$GNGSA,A,3,02,06,12,13,14,17,19,24,,,,,1.4,0.8,1.2,1*37
$GNGSA,A,3,102,103,111,112,124,125,136,,,,,,1.4,0.8,1.2,3*0A
$GNGSA,A,3,212,224,226,229,235,,,,,,,,1.4,0.8,1.2,4*04
$GNGSA,A,3,,,,,,,,,,,,,1.4,0.8,1.2,5*3B
$GNVTG,73.5,T,,M,0.4,N,0.7,K,A*21
$PQTMIMU,787958,-0.008540,-0.005368,1.013210,0.385000,-0.822500,1.260000,0,0*43
$PQTMINS,787960,0,,,,,,,-nan,-nan,-nan*1B
$PQTMIMU,787989,-0.009516,-0.010858,1.013698,0.140000,-0.840000,1.277500,0,0*4C
$PQTMINS,787992,0,,,,,,,-nan,-nan,-nan*16
$PQTMIMU,788021,-0.012688,-0.011468,1.016992,0.280000,-0.857500,1.417500,0,0*44
$PQTMINS,788029,0,,,,,,,-nan,-nan,-nan*10
$PQTMIMU,788059,-0.016104,-0.014640,1.017968,0.332500,-0.805000,1.522500,0,0*4D
$PQTMINS,788062,0,,,,,,,-nan,-nan,-nan*1F
$PQTMIMU,788091,-0.016348,-0.010736,1.017846,0.402500,-0.910000,1.557500,0,0*49
$PQTMINS,788094,0,,,,,,,-nan,-nan,-nan*16
$PQTMIMU,788124,-0.018300,-0.010370,1.016138,0.315000,-0.805000,1.540000,0,0*41
$PQTMINS,788132,0,,,,,,,-nan,-nan,-nan*1B
$PQTMIMU,788161,-0.019276,-0.013054,1.013332,0.332500,-0.787500,1.522500,0,0*4B
$PQTMINS,788164,0,,,,,,,-nan,-nan,-nan*18
$PQTMIMU,788193,-0.017934,-0.011834,1.017724,0.332500,-0.717500,1.470000,0,0*44
$PQTMINS,788196,0,,,,,,,-nan,-nan,-nan*15
$PQTMIMU,788226,-0.021716,-0.012688,1.015284,0.245000,-0.770000,1.452500,0,0*40
$PQTMINS,788234,0,,,,,,,-nan,-nan,-nan*1E
$PQTMIMU,788263,-0.023790,-0.005612,1.011502,0.297500,-0.735000,1.540000,0,0*49
$PQTMINS,788266,0,,,,,,,-nan,-nan,-nan*19
$PQTMIMU,788296,-0.021472,-0.004880,1.013332,0.367500,-0.770000,1.715000,0,0*40
$PQTMINS,788298,0,,,,,,,-nan,-nan,-nan*18
$PQTMIMU,788328,-0.029890,-0.000732,1.013088,0.437500,-0.700000,1.785000,0,0*40
$PQTMINS,788332,0,,,,,,,-nan,-nan,-nan*19
$PQTMIMU,788361,-0.037454,-0.004148,1.009794,0.472500,-0.682500,1.995000,0,0*48
$PQTMINS,788363,0,,,,,,,-nan,-nan,-nan*1D
$PQTMIMU,788393,-0.046604,-0.002928,1.016748,0.367500,-0.665000,2.152500,0,0*49
$PQTMINS,788394,0,,,,,,,-nan,-nan,-nan*15
$PQTMIMU,788424,-0.050752,-0.006466,1.012234,0.175000,-0.595000,2.222500,0,0*42
$PQTMINS,788424,0,,,,,,,-nan,-nan,-nan*19
$PQTMIMU,788453,-0.053558,-0.006954,1.014552,0.210000,-0.612500,2.240000,0,0*4C
$PQTMINS,788455,0,,,,,,,-nan,-nan,-nan*1F
$PQTMIMU,788484,-0.053680,-0.007686,1.013454,0.105000,-0.472500,2.380000,0,0*4F
$PQTMINS,788485,0,,,,,,,-nan,-nan,-nan*12
$PQTMIMU,788515,-0.054290,-0.005612,1.012600,0.122500,-0.490000,2.292500,0,0*47
$PQTMINS,788515,0,,,,,,,-nan,-nan,-nan*1A
$PQTMIMU,788544,-0.055266,-0.004148,1.014308,0.157500,-0.595000,2.345000,0,0*41
$PQTMINS,788545,0,,,,,,,-nan,-nan,-nan*1F
$PQTMIMU,788575,-0.050996,-0.005124,1.014796,0.052500,-0.577500,2.432500,0,0*45
$PQTMINS,788576,0,,,,,,,-nan,-nan,-nan*1F
$PQTMIMU,788606,-0.044896,-0.008784,1.019676,0.105000,-0.700000,2.397500,0,0*4C
$PQTMINS,788606,0,,,,,,,-nan,-nan,-nan*1B
$PQTMIMU,788635,-0.043066,-0.011102,1.020652,0.367500,-0.752500,2.450000,0,0*48
$PQTMINS,788636,0,,,,,,,-nan,-nan,-nan*18
$PQTMIMU,788666,-0.040382,-0.017568,1.024312,0.350000,-1.015000,2.590000,0,0*43
$PQTMINS,788666,0,,,,,,,-nan,-nan,-nan*1D
$PQTMIMU,788695,-0.038308,-0.014396,1.020286,0.455000,-1.137500,2.747500,0,0*45
$PQTMINS,788697,0,,,,,,,-nan,-nan,-nan*13
$PQTMIMU,788726,-0.034892,-0.011712,1.018456,0.542500,-1.172500,2.817500,0,0*4C
$PQTMINS,788727,0,,,,,,,-nan,-nan,-nan*19
$PQTMIMU,788757,-0.027816,-0.012566,1.020408,0.700000,-1.207500,2.870000,0,0*42
$PQTMINS,788757,0,,,,,,,-nan,-nan,-nan*1E
$PQTMIMU,788786,-0.030256,-0.014762,1.023580,0.857500,-1.207500,2.992500,0,0*44
$PQTMINS,788787,0,,,,,,,-nan,-nan,-nan*13
$PQTMIMU,788817,-0.026718,-0.016592,1.021384,0.875000,-1.225000,3.045000,0,0*43
$PQTMINS,788818,0,,,,,,,-nan,-nan,-nan*1A
$PQTMIMU,788848,-0.024156,-0.016226,1.017602,0.752500,-1.137500,3.010000,0,0*4B
$PQTMINS,788848,0,,,,,,,-nan,-nan,-nan*1F
$PQTMIMU,788877,-0.025864,-0.012688,1.013820,0.577500,-1.120000,3.115000,0,0*42
$PQTMINS,788878,0,,,,,,,-nan,-nan,-nan*1C
$PQTMIMU,788908,-0.024644,-0.012200,1.009306,0.577500,-1.137500,3.115000,0,0*45
$PQTMINS,788910,0,,,,,,,-nan,-nan,-nan*13
$PQTMIMU,788940,-0.022814,-0.008784,1.009794,0.577500,-0.997500,3.045000,0,0*4E
$PQTMINS,788947,0,,,,,,,-nan,-nan,-nan*11
$PQTMGPS,788976,17058.000,37.338342419,-122.013952918,16.0000,44.4531,0.3858,73.5156,1.0000,0.8125,1.4260,1,29,*78
$PQTMIMU,788978,-0.023668,-0.012200,1.007720,0.560000,-0.962500,2.992500,0,0*4C
$PQTMINS,788979,0,,,,,,,-nan,-nan,-nan*1C
$GNRMC,044400.00,A,3720.300545,N,12200.837070,W,0.8,73.5,121221,,,A,V*1D
$GNGGA,044400.00,3720.300545,N,12200.837070,W,1,21,0.8,44.5,M,-28.5,M,,*73
$GNGLL,3720.300545,N,12200.837070,W,044400.00,A,A*6A
$GPGSV,4,1,11,02,36,184,43,06,60,117,45,12,29,302,36,13,05,201,22,1*62
$GPGSV,4,2,11,14,18,100,38,15,05,229,21,17,31,049,30,19,55,038,45,1*67
$GPGSV,4,3,11,24,56,281,43,1*5A
$GPGSV,4,4,11,06,60,117,48,24,56,281,47,8*6B
$GAGSV,4,1,15,102,34,310,30,103,07,242,34,108,,,20,111,67,096,43,6*43
$GAGSV,4,2,15,112,23,041,25,124,32,106,44,125,74,023,41,136,41,188,38,6*7A
$GAGSV,4,3,15,102,34,310,33,103,07,242,33,111,67,096,40,112,23,041,21,1*7F
$GAGSV,4,4,15,124,32,106,42,125,74,023,43,136,41,188,39,1*7F
$GBGSV,2,1,05,212,18,225,37,224,33,313,29,226,83,280,38,229,26,046,31,1*76
$GBGSV,2,2,05,235,79,043,44,1*7E
$GNGSA,A,3,02,06,12,13,14,15,17,19,24,,,,1.4,0.8,1.2,1*33
$GNGSA,A,3,102,103,111,112,124,125,136,,,,,,1.4,0.8,1.2,3*0A
$GNGSA,A,3,212,224,226,229,235,,,,,,,,1.4,0.8,1.2,4*04
$GNGSA,A,3,,,,,,,,,,,,,1.4,0.8,1.2,5*3B
$GNVTG,73.5,T,,M,0.8,N,1.4,K,A*2F
$PQTMIMU,789008,-0.023180,-0.015616,1.012600,0.367500,-0.910000,3.027500,0,0*43
$PQTMINS,789011,0,,,,,,,-nan,-nan,-nan*1A
$PQTMIMU,789041,-0.015738,-0.014518,1.013088,0.157500,-0.910000,3.045000,0,0*45
$PQTMINS,789049,0,,,,,,,-nan,-nan,-nan*17
$PQTMIMU,789078,-0.020618,-0.012688,1.013942,0.140000,-0.735000,3.167500,0,0*47
$PQTMINS,789081,0,,,,,,,-nan,-nan,-nan*13
$PQTMIMU,789111,-0.017812,-0.013664,1.011990,0.262500,-0.752500,3.097500,0,0*4B
$PQTMINS,789113,0,,,,,,,-nan,-nan,-nan*19
$PQTMIMU,789143,-0.018422,-0.016348,1.011868,0.280000,-0.717500,3.220000,0,0*47
$PQTMINS,789151,0,,,,,,,-nan,-nan,-nan*1F
$PQTMIMU,789181,-0.015128,-0.022204,1.022360,0.192500,-0.665000,3.185000,0,0*4E
$PQTMINS,789183,0,,,,,,,-nan,-nan,-nan*10
$PQTMIMU,789213,-0.020130,-0.020984,1.018944,0.070000,-0.840000,3.255000,0,0*42
$PQTMINS,789215,0,,,,,,,-nan,-nan,-nan*1C
$PQTMIMU,789244,-0.016104,-0.020374,1.018700,0.017500,-0.822500,3.237500,0,0*4D
$PQTMINS,789253,0,,,,,,,-nan,-nan,-nan*1E
$PQTMIMU,789283,-0.019154,-0.018422,1.016748,0.017500,-0.892500,3.255000,0,0*4B
$PQTMINS,789285,0,,,,,,,-nan,-nan,-nan*15
$PQTMIMU,789315,-0.012444,-0.022570,1.011136,0.052500,-0.840000,3.167500,0,0*41
$PQTMINS,789316,0,,,,,,,-nan,-nan,-nan*1E
$PQTMIMU,789346,-0.007686,-0.019520,1.017236,0.035000,-0.840000,3.185000,0,0*4A
$PQTMINS,789350,0,,,,,,,-nan,-nan,-nan*1C
$PQTMIMU,789380,-0.008662,-0.021228,1.011746,-0.122500,-0.892500,3.080000,0,0*64
$PQTMINS,789381,0,,,,,,,-nan,-nan,-nan*10
$PQTMIMU,789411,-0.008540,-0.019398,1.016504,-0.122500,-1.015000,3.062500,0,0*60
$PQTMINS,789412,0,,,,,,,-nan,-nan,-nan*1D
$PQTMIMU,789442,-0.008418,-0.017324,1.014552,-0.157500,-0.840000,3.150000,0,0*6C
$PQTMINS,789442,0,,,,,,,-nan,-nan,-nan*18
$PQTMIMU,789471,-0.004392,-0.019154,1.020774,-0.070000,-0.857500,3.167500,0,0*6C
$PQTMINS,789473,0,,,,,,,-nan,-nan,-nan*1A
$PQTMIMU,789502,-0.001830,-0.021106,1.019432,0.017500,-0.857500,3.202500,0,0*41
$PQTMINS,789503,0,,,,,,,-nan,-nan,-nan*1C
$PQTMIMU,789533,-0.003660,-0.027328,1.021750,0.192500,-0.997500,3.132500,0,0*4F
$PQTMINS,789533,0,,,,,,,-nan,-nan,-nan*1F
$PQTMIMU,789562,-0.001952,-0.034282,1.021750,0.087500,-0.910000,2.992500,0,0*48
$PQTMINS,789563,0,,,,,,,-nan,-nan,-nan*1A
$PQTMIMU,789593,0.000610,-0.034770,1.019432,0.070000,-0.997500,2.905000,0,0*6B
$PQTMINS,789594,0,,,,,,,-nan,-nan,-nan*12
$PQTMIMU,789624,0.006832,-0.028304,1.020286,0.087500,-0.997500,2.835000,0,0*6A
$PQTMINS,789624,0,,,,,,,-nan,-nan,-nan*1A
$PQTMIMU,789653,0.005978,-0.026352,1.014308,0.245000,-0.997500,2.747500,0,0*6D
$PQTMINS,789654,0,,,,,,,-nan,-nan,-nan*1D
$PQTMIMU,789684,0.011224,-0.024766,1.014186,0.402500,-0.962500,2.765000,0,0*6A
$PQTMINS,789684,0,,,,,,,-nan,-nan,-nan*10
$PQTMIMU,789713,0.013054,-0.024400,1.012356,0.402500,-0.945000,2.817500,0,0*67
$PQTMINS,789715,0,,,,,,,-nan,-nan,-nan*19
$PQTMIMU,789744,0.019642,-0.026352,1.008208,0.367500,-0.805000,2.800000,0,0*6F
$PQTMINS,789745,0,,,,,,,-nan,-nan,-nan*1C
$PQTMIMU,789775,0.021106,-0.026596,1.012844,0.262500,-0.840000,2.817500,0,0*60
$PQTMINS,789775,0,,,,,,,-nan,-nan,-nan*1F
$PQTMIMU,789804,0.026352,-0.024522,1.011868,0.192500,-0.857500,2.730000,0,0*6D
$PQTMINS,789805,0,,,,,,,-nan,-nan,-nan*17
$PQTMIMU,789835,0.028060,-0.023546,1.018822,0.052500,-0.822500,2.695000,0,0*60
$PQTMINS,789836,0,,,,,,,-nan,-nan,-nan*17
$PQTMIMU,789866,0.029280,-0.030500,1.023092,0.227500,-0.997500,2.590000,0,0*69
$PQTMINS,789866,0,,,,,,,-nan,-nan,-nan*12
$PQTMIMU,789895,0.040138,-0.037942,1.026508,0.420000,-1.032500,2.415000,0,0*6B
$PQTMINS,789898,0,,,,,,,-nan,-nan,-nan*13
$PQTMIMU,789927,0.042456,-0.047336,1.026630,0.210000,-1.067500,2.100000,0,0*6E
$PQTMINS,789930,0,,,,,,,-nan,-nan,-nan*10
$PQTMGPS,789945,17059.000,37.338342419,-122.013952918,16.0000,44.4531,0.5707,73.5156,1.0000,0.8125,1.4260,1,29,*7B
$GNRMC,044401.00,A,3720.300581,N,12200.837450,W,1.1,73.5,121221,,,A,V*1A
$GNGGA,044401.00,3720.300581,N,12200.837450,W,1,21,0.8,44.5,M,-28.5,M,,*7C
$GNGLL,3720.300581,N,12200.837450,W,044401.00,A,A*65
$GPGSV,4,1,11,02,36,184,45,06,60,117,44,12,29,302,33,13,05,201,21,1*63
$GPGSV,4,2,11,14,18,100,38,15,05,229,25,17,31,049,30,19,55,038,46,1*60
$GPGSV,4,3,11,24,56,281,42,1*5B
$GPGSV,4,4,11,06,60,117,47,24,56,281,46,8*65
$GAGSV,4,1,15,102,34,310,30,103,07,242,32,108,,,22,111,67,096,42,6*46
$GAGSV,4,2,15,112,23,041,25,124,32,106,43,125,74,023,41,136,41,188,40,6*72
$GAGSV,4,3,15,102,34,310,34,103,07,242,28,111,67,096,41,112,23,041,18,1*79
$GAGSV,4,4,15,124,32,106,43,125,74,023,43,136,41,188,40,1*70
$GBGSV,2,1,05,212,18,225,37,224,33,313,29,226,83,280,36,229,26,046,33,1*7A
$GBGSV,2,2,05,235,79,043,44,1*7E
$GNGSA,A,3,02,06,12,13,14,15,17,19,24,,,,1.4,0.8,1.2,1*33
$GNGSA,A,3,102,103,111,112,124,125,136,,,,,,1.4,0.8,1.2,3*0A
$GNGSA,A,3,212,224,226,229,235,,,,,,,,1.4,0.8,1.2,4*04
$GNGSA,A,3,,,,,,,,,,,,,1.4,0.8,1.2,5*3B
$GNVTG,73.5,T,,M,1.1,N,2.1,K,A*21
$PQTMIMU,789960,0.048312,-0.045872,1.015040,0.140000,-1.155000,1.942500,0,0*63
$PQTMINS,789964,0,,,,,,,-nan,-nan,-nan*11
$PQTMIMU,789994,0.053802,-0.038796,1.008208,0.157500,-1.102500,1.697500,0,0*66
$PQTMINS,789996,0,,,,,,,-nan,-nan,-nan*1C
$PQTMIMU,790026,0.062708,-0.033184,1.011868,0.490000,-1.137500,1.645000,0,0*64
$PQTMINS,790028,0,,,,,,,-nan,-nan,-nan*18
$PQTMIMU,790057,0.066124,-0.033916,1.011014,0.892500,-1.190000,1.592500,0,0*61
$PQTMINS,790060,0,,,,,,,-nan,-nan,-nan*14
$PQTMIMU,790090,0.065758,-0.031842,1.018456,0.962500,-1.347500,1.627500,0,0*63
$PQTMINS,790097,0,,,,,,,-nan,-nan,-nan*1C
$PQTMIMU,790127,0.059536,-0.032696,1.016504,0.962500,-1.347500,1.592500,0,0*6A
$PQTMINS,790130,0,,,,,,,-nan,-nan,-nan*10
$PQTMIMU,790159,0.057340,-0.033306,1.020896,0.840000,-1.225000,1.627500,0,0*6D
$PQTMINS,790162,0,,,,,,,-nan,-nan,-nan*17
$PQTMIMU,790192,0.053680,-0.029890,1.017114,0.735000,-1.050000,1.487500,0,0*6A
$PQTMINS,790200,0,,,,,,,-nan,-nan,-nan*10
$PQTMIMU,790229,0.051240,-0.027206,1.015040,0.472500,-1.015000,1.277500,0,0*67
$PQTMINS,790232,0,,,,,,,-nan,-nan,-nan*11
$PQTMIMU,790262,0.046848,-0.025742,1.010892,0.490000,-0.787500,1.067500,0,0*6B
$PQTMINS,790264,0,,,,,,,-nan,-nan,-nan*12
$PQTMIMU,790294,0.043798,-0.026962,1.014796,0.385000,-0.822500,0.875000,0,0*69
$PQTMINS,790302,0,,,,,,,-nan,-nan,-nan*13
$PQTMIMU,790331,0.035868,-0.021716,1.012234,0.297500,-0.840000,0.700000,0,0*6C
$PQTMINS,790333,0,,,,,,,-nan,-nan,-nan*11
$PQTMIMU,790362,0.020740,-0.019276,1.012600,0.262500,-0.577500,0.595000,0,0*68
$PQTMINS,790364,0,,,,,,,-nan,-nan,-nan*13
$PQTMIMU,790393,0.004880,-0.012932,1.009306,0.437500,-0.560000,0.752500,0,0*63
$PQTMINS,790395,0,,,,,,,-nan,-nan,-nan*1D
$PQTMIMU,790424,-0.018300,-0.008906,1.007598,0.525000,-0.490000,0.770000,0,0*44
$PQTMINS,790426,0,,,,,,,-nan,-nan,-nan*12
$PQTMIMU,790455,-0.028914,-0.013298,1.011868,0.490000,-0.490000,0.980000,0,0*43
$PQTMINS,790456,0,,,,,,,-nan,-nan,-nan*15
$PQTMIMU,790486,-0.036966,-0.014762,1.016138,0.542500,-0.210000,1.172500,0,0*4F
$PQTMINS,790486,0,,,,,,,-nan,-nan,-nan*18
$PQTMIMU,790515,-0.047824,-0.012688,1.012234,0.577500,-0.350000,1.102500,0,0*49
$PQTMINS,790516,0,,,,,,,-nan,-nan,-nan*10
$PQTMIMU,790546,-0.055754,-0.012810,1.015040,0.577500,-0.332500,1.032500,0,0*4E
$PQTMINS,790547,0,,,,,,,-nan,-nan,-nan*14
$PQTMIMU,790577,-0.051240,-0.010980,1.019188,0.455000,-0.367500,1.120000,0,0*48
$PQTMINS,790577,0,,,,,,,-nan,-nan,-nan*17
$PQTMIMU,790606,-0.054168,-0.009394,1.018456,0.367500,-0.525000,0.892500,0,0*43
$PQTMINS,790607,0,,,,,,,-nan,-nan,-nan*13
$PQTMIMU,790637,-0.052338,-0.011224,1.014064,0.367500,-0.682500,0.840000,0,0*4B
$PQTMINS,790637,0,,,,,,,-nan,-nan,-nan*10
$PQTMIMU,790666,-0.049410,-0.012322,1.023214,0.332500,-0.805000,0.822500,0,0*48
$PQTMINS,790668,0,,,,,,,-nan,-nan,-nan*1A
$PQTMIMU,790697,-0.045872,-0.008784,1.022238,0.262500,-0.857500,0.822500,0,0*48
$PQTMINS,790698,0,,,,,,,-nan,-nan,-nan*15
$PQTMIMU,790728,-0.042944,-0.005368,1.020164,0.297500,-0.945000,0.962500,0,0*45
$PQTMINS,790728,0,,,,,,,-nan,-nan,-nan*1F
$PQTMIMU,790757,-0.042700,-0.004880,1.015772,0.332500,-0.997500,1.190000,0,0*4D
$PQTMINS,790758,0,,,,,,,-nan,-nan,-nan*18
$PQTMIMU,790788,-0.041358,-0.002684,1.016504,0.402500,-1.015000,1.277500,0,0*45
$PQTMINS,790789,0,,,,,,,-nan,-nan,-nan*14
$PQTMIMU,790818,-0.043066,-0.003660,1.013698,0.455000,-0.857500,1.382500,0,0*41
$PQTMINS,790819,0,,,,,,,-nan,-nan,-nan*12
$PQTMIMU,790848,-0.042822,-0.006100,1.011868,0.595000,-0.892500,1.452500,0,0*44
$PQTMINS,790849,0,,,,,,,-nan,-nan,-nan*17
$PQTMIMU,790879,-0.043920,-0.009272,1.013576,0.507500,-0.875000,1.522500,0,0*49
$PQTMINS,790879,0,,,,,,,-nan,-nan,-nan*14
$PQTMIMU,790908,-0.043310,-0.010492,1.014674,0.542500,-0.840000,1.662500,0,0*41
$PQTMINS,790917,0,,,,,,,-nan,-nan,-nan*1D
$PQTMIMU,790947,-0.043432,-0.012566,1.015528,0.402500,-0.840000,1.627500,0,0*4A
$PQTMINS,790949,0,,,,,,,-nan,-nan,-nan*16
$PQTMGPS,790953,17060.000,37.338342419,-122.013966578,16.0000,44.4531,0.4662,73.5156,1.0000,0.7813,1.4084,1,28,*7A
$GNRMC,044402.00,A,3720.300610,N,12200.837786,W,0.9,73.5,121221,,,A,V*13
$GNGGA,044402.00,3720.300610,N,12200.837786,W,1,20,0.8,44.5,M,-28.5,M,,*7D
$GNGLL,3720.300610,N,12200.837786,W,044402.00,A,A*65
$GPGSV,4,1,11,02,36,184,43,06,60,117,43,12,29,302,32,13,05,201,20,1*62
$GPGSV,4,2,11,14,18,100,36,15,05,228,28,17,31,049,30,19,55,038,48,1*6C
$GPGSV,4,3,11,24,56,281,42,1*5B
$GPGSV,4,4,11,06,60,117,46,24,56,281,45,8*67
$GAGSV,4,1,15,102,34,310,32,103,07,242,29,108,,,21,111,67,096,41,6*4E
$GAGSV,4,2,15,112,23,041,22,124,32,106,42,125,74,023,43,136,41,188,39,6*78
$GAGSV,4,3,15,102,34,310,34,103,07,242,23,111,67,096,41,112,23,041,22,1*7B
$GAGSV,4,4,15,124,32,106,43,125,74,023,43,136,41,188,39,1*7E
$GBGSV,2,1,05,212,18,225,38,224,33,313,30,226,83,280,38,229,26,046,34,1*74
$GBGSV,2,2,05,235,79,043,44,1*7E
$GNGSA,A,3,02,06,12,14,15,17,19,24,,,,,1.4,0.8,1.2,1*31
$GNGSA,A,3,102,103,111,112,124,125,136,,,,,,1.4,0.8,1.2,3*0A
$GNGSA,A,3,212,224,226,229,235,,,,,,,,1.4,0.8,1.2,4*04
$GNGSA,A,3,,,,,,,,,,,,,1.4,0.8,1.2,5*3B
$GNVTG,73.5,T,,M,0.9,N,1.7,K,A*2D
$PQTMIMU,790979,-0.043310,-0.010614,1.018334,0.367500,-0.822500,1.540000,0,0*40
$PQTMINS,790981,0,,,,,,,-nan,-nan,-nan*12
$PQTMIMU,791010,-0.042334,-0.007442,1.014308,0.420000,-0.822500,1.592500,0,0*4F
$PQTMINS,791019,0,,,,,,,-nan,-nan,-nan*1B
$PQTMIMU,791049,-0.038674,-0.007564,1.016504,0.402500,-0.875000,1.662500,0,0*4C
$PQTMINS,791051,0,,,,,,,-nan,-nan,-nan*17
$PQTMIMU,791080,-0.038674,-0.010248,1.017236,0.437500,-0.945000,1.697500,0,0*4F
$PQTMINS,791083,0,,,,,,,-nan,-nan,-nan*18
$PQTMIMU,791112,-0.040504,-0.009516,1.015406,0.402500,-0.892500,1.715000,0,0*4B
$PQTMINS,791121,0,,,,,,,-nan,-nan,-nan*11
$PQTMIMU,791151,-0.037088,-0.010004,1.016626,0.437500,-0.857500,1.820000,0,0*46
$PQTMINS,791153,0,,,,,,,-nan,-nan,-nan*14
$PQTMIMU,791182,-0.037820,-0.010004,1.015650,0.437500,-0.612500,1.820000,0,0*4F
$PQTMINS,791185,0,,,,,,,-nan,-nan,-nan*1F
$PQTMIMU,791215,-0.036722,-0.010248,1.015284,0.455000,-0.647500,1.960000,0,0*4D
$PQTMINS,791223,0,,,,,,,-nan,-nan,-nan*10
$PQTMIMU,791252,-0.038186,-0.012444,1.012722,0.490000,-0.700000,1.960000,0,0*40
$PQTMINS,791255,0,,,,,,,-nan,-nan,-nan*11
$PQTMIMU,791284,-0.037454,-0.014152,1.015284,0.402500,-0.752500,1.960000,0,0*48
$PQTMINS,791287,0,,,,,,,-nan,-nan,-nan*1E
$PQTMIMU,791317,-0.037454,-0.015860,1.014552,0.402500,-0.752500,1.942500,0,0*42
$PQTMINS,791321,0,,,,,,,-nan,-nan,-nan*13
$PQTMIMU,791351,-0.036722,-0.015128,1.016504,0.420000,-0.752500,1.855000,0,0*40
$PQTMINS,791352,0,,,,,,,-nan,-nan,-nan*17
$PQTMIMU,791382,-0.033184,-0.012932,1.016138,0.332500,-0.735000,1.837500,0,0*4A
$PQTMINS,791383,0,,,,,,,-nan,-nan,-nan*1B
$PQTMIMU,791413,-0.035868,-0.014884,1.013332,0.332500,-0.752500,1.837500,0,0*4B
$PQTMINS,791414,0,,,,,,,-nan,-nan,-nan*12
$PQTMIMU,791443,-0.028426,-0.013908,1.017358,0.402500,-0.735000,1.907500,0,0*4C
$PQTMINS,791445,0,,,,,,,-nan,-nan,-nan*16
$PQTMIMU,791474,-0.027450,-0.014030,1.017114,0.472500,-0.612500,1.960000,0,0*4B
$PQTMINS,791475,0,,,,,,,-nan,-nan,-nan*15
$PQTMIMU,791505,-0.026352,-0.019764,1.013454,0.350000,-0.840000,1.925000,0,0*49
$PQTMINS,791505,0,,,,,,,-nan,-nan,-nan*13
$PQTMIMU,791534,-0.024522,-0.015860,1.014552,0.437500,-0.892500,1.925000,0,0*46
$PQTMINS,791535,0,,,,,,,-nan,-nan,-nan*10
$PQTMIMU,791565,-0.021716,-0.021594,1.019432,0.402500,-0.945000,1.925000,0,0*41
$PQTMINS,791566,0,,,,,,,-nan,-nan,-nan*16
$PQTMIMU,791596,-0.021716,-0.020252,1.019432,0.437500,-0.752500,1.820000,0,0*4E
$PQTMINS,791596,0,,,,,,,-nan,-nan,-nan*19
$PQTMIMU,791625,-0.022448,-0.020008,1.012356,0.402500,-0.927500,1.855000,0,0*45
$PQTMINS,791626,0,,,,,,,-nan,-nan,-nan*11
$PQTMIMU,791656,-0.018300,-0.018544,1.013454,0.385000,-0.822500,1.732500,0,0*43
$PQTMINS,791656,0,,,,,,,-nan,-nan,-nan*16
$PQTMIMU,791685,-0.018544,-0.024034,1.016016,0.332500,-0.822500,1.575000,0,0*4C
$PQTMINS,791687,0,,,,,,,-nan,-nan,-nan*1A
$PQTMIMU,791716,-0.021716,-0.025010,1.013942,0.525000,-0.857500,1.645000,0,0*45
$PQTMINS,791717,0,,,,,,,-nan,-nan,-nan*12
$PQTMIMU,791747,-0.018422,-0.017568,1.018212,0.507500,-0.892500,1.645000,0,0*4D
$PQTMINS,791747,0,,,,,,,-nan,-nan,-nan*17
$PQTMIMU,791776,-0.018788,-0.021106,1.011380,0.647500,-0.805000,1.627500,0,0*4B
$PQTMINS,791777,0,,,,,,,-nan,-nan,-nan*14
$PQTMIMU,791807,-0.018788,-0.015982,1.018700,0.752500,-0.822500,1.575000,0,0*40
$PQTMINS,791808,0,,,,,,,-nan,-nan,-nan*13
$PQTMIMU,791838,-0.017080,-0.020618,1.017114,0.770000,-0.875000,1.610000,0,0*48
$PQTMINS,791838,0,,,,,,,-nan,-nan,-nan*10
$PQTMIMU,791867,-0.019276,-0.016470,1.017358,0.857500,-0.822500,1.505000,0,0*4B
$PQTMINS,791868,0,,,,,,,-nan,-nan,-nan*15
$PQTMIMU,791898,-0.019032,-0.015616,1.012112,0.875000,-0.892500,1.522500,0,0*4F
$PQTMINS,791900,0,,,,,,,-nan,-nan,-nan*1A
$PQTMIMU,791929,-0.022570,-0.019886,1.022360,0.682500,-0.735000,1.417500,0,0*43
$PQTMINS,791938,0,,,,,,,-nan,-nan,-nan*11
$PQTMGPS,791947,17061.000,37.338342419,-122.013966578,16.0000,44.4531,0.3135,73.5156,1.0000,0.7813,1.4084,1,28,*7D
$GNRMC,044403.00,A,3720.300631,N,12200.837979,W,0.6,73.5,121221,,,A,V*10
$GNGGA,044403.00,3720.300631,N,12200.837979,W,1,20,0.8,44.5,M,-28.5,M,,*71
$GNGLL,3720.300631,N,12200.837979,W,044403.00,A,A*69
$GPGSV,4,1,11,02,36,184,38,06,60,117,42,12,29,302,29,13,05,201,22,1*67
$GPGSV,4,2,11,14,18,100,37,15,05,228,25,17,31,049,33,19,55,038,47,1*6C
$GPGSV,4,3,11,24,56,281,43,1*5A
$GPGSV,4,4,11,06,60,117,47,24,56,281,44,8*67
$GAGSV,4,1,15,102,34,310,34,103,07,242,27,108,,,23,111,67,096,42,6*47
$GAGSV,4,2,15,112,23,041,25,124,32,106,43,125,74,023,43,136,41,188,41,6*71
$GAGSV,4,3,15,102,34,310,33,103,07,242,26,111,67,096,42,112,23,041,18,1*73
$GAGSV,4,4,15,124,32,106,43,125,74,023,45,136,41,188,37,1*76
$GBGSV,2,1,05,212,18,225,36,224,33,313,30,226,83,280,37,229,26,046,33,1*72
$GBGSV,2,2,05,235,79,043,43,1*79
$GNGSA,A,3,02,06,12,14,15,17,19,24,,,,,1.4,0.8,1.2,1*31
$GNGSA,A,3,102,103,111,112,124,125,136,,,,,,1.4,0.8,1.2,3*0A
$GNGSA,A,3,212,224,226,229,235,,,,,,,,1.4,0.8,1.2,4*04
$GNGSA,A,3,,,,,,,,,,,,,1.4,0.8,1.2,5*3B
$GNVTG,73.5,T,,M,0.6,N,1.1,K,A*24
$PQTMIMU,791968,-0.020374,-0.020252,1.018212,0.647500,-0.822500,1.330000,0,0*40
$PQTMINS,791969,0,,,,,,,-nan,-nan,-nan*15
$PQTMIMU,791999,-0.018300,-0.020496,1.007964,0.472500,-0.927500,1.312500,0,0*49
$PQTMINS,792001,0,,,,,,,-nan,-nan,-nan*11
$PQTMIMU,792031,-0.019032,-0.016470,1.009428,0.525000,-0.997500,1.260000,0,0*48
$PQTMINS,792038,0,,,,,,,-nan,-nan,-nan*1B
$PQTMIMU,792068,-0.020130,-0.015372,1.010038,0.542500,-1.015000,1.295000,0,0*4F
$PQTMINS,792071,0,,,,,,,-nan,-nan,-nan*16
$PQTMIMU,792101,-0.018422,-0.013786,1.009672,0.735000,-0.962500,1.312500,0,0*44
$PQTMINS,792103,0,,,,,,,-nan,-nan,-nan*12
$PQTMIMU,792132,-0.018910,-0.020252,1.019798,0.735000,-0.927500,1.207500,0,0*44
$PQTMINS,792141,0,,,,,,,-nan,-nan,-nan*14
$PQTMIMU,792171,-0.018788,-0.019520,1.018090,0.630000,-0.927500,1.172500,0,0*4F
$PQTMINS,792173,0,,,,,,,-nan,-nan,-nan*15
$PQTMIMU,792203,-0.013420,-0.015616,1.016260,0.630000,-0.910000,1.190000,0,0*42
$PQTMINS,792205,0,,,,,,,-nan,-nan,-nan*17
$PQTMIMU,792234,-0.009882,-0.015128,1.020286,0.647500,-0.805000,0.997500,0,0*45
$PQTMINS,792243,0,,,,,,,-nan,-nan,-nan*15
$PQTMIMU,792273,-0.009638,-0.022082,1.017968,0.612500,-0.822500,0.910000,0,0*49
$PQTMINS,792275,0,,,,,,,-nan,-nan,-nan*10
$PQTMIMU,792304,-0.005856,-0.020496,1.020408,0.612500,-0.805000,0.822500,0,0*4B
$PQTMINS,792307,0,,,,,,,-nan,-nan,-nan*14
$PQTMIMU,792336,-0.007198,-0.019520,1.014552,0.420000,-0.892500,0.840000,0,0*40
$PQTMINS,792341,0,,,,,,,-nan,-nan,-nan*16
$PQTMIMU,792370,-0.006344,-0.013420,1.013332,0.525000,-1.015000,0.752500,0,0*42
$PQTMINS,792372,0,,,,,,,-nan,-nan,-nan*16
$PQTMIMU,792401,-0.007198,-0.011834,1.010648,0.700000,-0.892500,0.717500,0,0*46
$PQTMINS,792403,0,,,,,,,-nan,-nan,-nan*17
$PQTMIMU,792432,-0.005734,-0.018178,1.019310,0.595000,-0.945000,0.752500,0,0*4C
$PQTMINS,792433,0,,,,,,,-nan,-nan,-nan*14
$PQTMIMU,792463,-0.009638,-0.019642,1.015284,0.682500,-0.962500,0.682500,0,0*4A
$PQTMINS,792464,0,,,,,,,-nan,-nan,-nan*16
$PQTMIMU,792494,-0.012810,-0.022814,1.015772,0.630000,-0.980000,0.682500,0,0*40
$PQTMINS,792494,0,,,,,,,-nan,-nan,-nan*19
$PQTMIMU,792523,-0.015982,-0.015616,1.016992,0.472500,-0.980000,0.577500,0,0*43
$PQTMINS,792524,0,,,,,,,-nan,-nan,-nan*13
$PQTMIMU,792554,-0.014396,-0.016592,1.013942,0.560000,-0.910000,0.507500,0,0*40
$PQTMINS,792554,0,,,,,,,-nan,-nan,-nan*14
$PQTMIMU,792583,-0.015372,-0.014396,1.014552,0.612500,-0.875000,0.437500,0,0*48
$PQTMINS,792585,0,,,,,,,-nan,-nan,-nan*18
$PQTMIMU,792614,-0.012810,-0.012200,1.011746,0.665000,-0.927500,0.367500,0,0*43
$PQTMINS,792615,0,,,,,,,-nan,-nan,-nan*12
$PQTMIMU,792645,-0.015372,-0.014030,1.017968,0.787500,-0.892500,0.280000,0,0*46
$PQTMINS,792645,0,,,,,,,-nan,-nan,-nan*17
$PQTMIMU,792674,-0.020252,-0.016348,1.017968,0.612500,-0.875000,0.227500,0,0*46
$PQTMINS,792675,0,,,,,,,-nan,-nan,-nan*14
$PQTMIMU,792705,-0.021350,-0.008906,1.014552,0.735000,-0.857500,0.350000,0,0*4A
$PQTMINS,792706,0,,,,,,,-nan,-nan,-nan*11
$PQTMIMU,792736,-0.024888,-0.014396,1.017602,0.787500,-0.770000,0.297500,0,0*46
$PQTMINS,792736,0,,,,,,,-nan,-nan,-nan*12
$PQTMIMU,792765,-0.029280,-0.011224,1.010648,0.665000,-0.805000,0.297500,0,0*4E
$PQTMINS,792766,0,,,,,,,-nan,-nan,-nan*17
$PQTMIMU,792796,-0.035380,-0.007320,1.013576,0.822500,-0.927500,0.210000,0,0*47
$PQTMINS,792796,0,,,,,,,-nan,-nan,-nan*18
$PQTMIMU,792825,-0.035990,-0.013298,1.020042,0.735000,-0.875000,0.210000,0,0*41
$PQTMINS,792827,0,,,,,,,-nan,-nan,-nan*1D
$PQTMIMU,792856,-0.038308,-0.011956,1.019432,0.717500,-0.945000,0.192500,0,0*4A
$PQTMINS,792857,0,,,,,,,-nan,-nan,-nan*1A
$PQTMIMU,792887,-0.035868,-0.009760,1.013088,0.665000,-0.892500,-0.035000,0,0*60
$PQTMINS,792889,0,,,,,,,-nan,-nan,-nan*19
$PQTMIMU,792919,-0.033184,-0.009882,1.018822,0.560000,-0.997500,0.035000,0,0*44
$PQTMINS,792921,0,,,,,,,-nan,-nan,-nan*1A
$PQTMGPS,792947,17062.000,37.338342419,-122.013966578,16.0000,44.4531,0.4662,73.5156,1.0000,0.7813,1.4084,1,28,*7F
$GNRMC,044404.00,A,3720.300631,N,12200.838294,W,0.9,73.5,121221,,,A,V*1F
$GNGGA,044404.00,3720.300631,N,12200.838294,W,1,20,0.8,44.5,M,-28.5,M,,*71
$GNGLL,3720.300631,N,12200.838294,W,044404.00,A,A*69
$GPGSV,4,1,11,02,36,184,37,06,60,117,44,12,29,302,36,13,05,201,27,1*65
$GPGSV,4,2,11,14,18,100,38,15,05,228,25,17,31,049,32,19,55,038,45,1*60
$GPGSV,4,3,11,24,56,281,44,1*5D
$GPGSV,4,4,11,06,60,117,46,24,56,281,44,8*66
$GAGSV,4,1,15,102,34,310,38,103,07,242,30,108,,,22,111,67,096,41,6*4F
$GAGSV,4,2,15,112,23,041,22,124,32,106,43,125,74,023,43,136,41,188,39,6*79
$GAGSV,4,3,15,102,34,310,31,103,07,242,29,111,67,096,41,112,23,041,18,1*7D
$PQTMIMU,792950,-0.032208,-0.005856,1.010404,0.665000,-0.980000,-0.035000,0,0*62
$PQTMINS,792955,0,,,,,,,-nan,-nan,-nan*19
$GAGSV,4,4,15,124,32,106,43,125,74,023,45,136,41,188,40,1*76
$GBGSV,2,1,05,212,18,225,36,224,33,313,33,226,83,280,37,229,26,046,34,1*76
$GBGSV,2,2,05,235,79,043,41,1*7B
$GNGSA,A,3,02,06,12,14,15,17,19,24,,,,,1.4,0.8,1.2,1*31
$GNGSA,A,3,102,103,111,112,124,125,136,,,,,,1.4,0.8,1.2,3*0A
$GNGSA,A,3,212,224,226,229,235,,,,,,,,1.4,0.8,1.2,4*04
$GNGSA,A,3,,,,,,,,,,,,,1.4,0.8,1.2,5*3B
$GNVTG,73.5,T,,M,0.9,N,1.7,K,A*2D
$PQTMIMU,792984,-0.026596,-0.011224,1.016016,0.665000,-0.997500,0.000000,0,0*4D
$PQTMINS,792986,0,,,,,,,-nan,-nan,-nan*17
$PQTMIMU,793017,-0.020984,-0.012566,1.018212,0.525000,-0.945000,-0.105000,0,0*68
$PQTMINS,793019,0,,,,,,,-nan,-nan,-nan*19
$PQTMIMU,793049,-0.019032,-0.005368,1.013332,0.595000,-1.085000,0.017500,0,0*4E
$PQTMINS,793051,0,,,,,,,-nan,-nan,-nan*15
$PQTMIMU,793080,-0.015128,-0.008296,1.014430,0.665000,-1.050000,-0.035000,0,0*6E
$PQTMINS,793088,0,,,,,,,-nan,-nan,-nan*11
$PQTMIMU,793119,-0.016958,-0.010004,1.011746,0.472500,-1.120000,-0.192500,0,0*6A
$PQTMINS,793121,0,,,,,,,-nan,-nan,-nan*13
$PQTMIMU,793151,-0.011712,-0.008540,1.016138,0.595000,-1.050000,-0.175000,0,0*62
$PQTMINS,793153,0,,,,,,,-nan,-nan,-nan*16
$PQTMIMU,793182,-0.012200,-0.016348,1.015772,0.507500,-1.067500,-0.315000,0,0*68
$PQTMINS,793191,0,,,,,,,-nan,-nan,-nan*18
$PQTMIMU,793221,-0.007198,-0.014396,1.016504,0.542500,-1.120000,-0.280000,0,0*6E
$PQTMINS,793223,0,,,,,,,-nan,-nan,-nan*12
$PQTMIMU,793252,-0.010126,-0.008540,1.013698,0.542500,-1.137500,-0.245000,0,0*60
$PQTMINS,793255,0,,,,,,,-nan,-nan,-nan*13
$PQTMIMU,793284,-0.010004,-0.010126,1.011258,0.577500,-1.015000,-0.350000,0,0*6A
$PQTMINS,793293,0,,,,,,,-nan,-nan,-nan*19
$PQTMIMU,793322,-0.012078,-0.007076,1.011136,0.665000,-1.067500,-0.367500,0,0*63
$PQTMINS,793324,0,,,,,,,-nan,-nan,-nan*14
$PQTMIMU,793354,-0.011712,-0.008540,1.011014,0.682500,-1.050000,-0.437500,0,0*6B
$PQTMINS,793355,0,,,,,,,-nan,-nan,-nan*12
$PQTMIMU,793385,-0.012932,-0.012200,1.021384,0.752500,-0.980000,-0.507500,0,0*62
$PQTMINS,793389,0,,,,,,,-nan,-nan,-nan*13
$PQTMIMU,793419,-0.013420,-0.010980,1.020774,0.525000,-0.997500,-0.542500,0,0*61
$PQTMINS,793420,0,,,,,,,-nan,-nan,-nan*17
$PQTMIMU,793450,-0.011102,-0.007686,1.016016,0.420000,-1.032500,-0.560000,0,0*64
$PQTMINS,793450,0,,,,,,,-nan,-nan,-nan*10
$PQTMIMU,793479,-0.012566,-0.002196,1.016016,0.560000,-0.997500,-0.630000,0,0*6D
$PQTMINS,793480,0,,,,,,,-nan,-nan,-nan*1D
$PQTMIMU,793510,-0.006100,0.000244,1.010770,0.612500,-1.102500,-0.595000,0,0*4A
$PQTMINS,793511,0,,,,,,,-nan,-nan,-nan*14
$PQTMIMU,793541,-0.010004,-0.004880,1.014430,0.647500,-1.172500,-0.647500,0,0*6A
$PQTMINS,793541,0,,,,,,,-nan,-nan,-nan*11
$PQTMIMU,793570,-0.009516,-0.009272,1.020896,0.455000,-1.032500,-0.647500,0,0*6A
$PQTMINS,793571,0,,,,,,,-nan,-nan,-nan*12
$PQTMIMU,793601,-0.010614,-0.004636,1.017236,0.262500,-1.102500,-0.577500,0,0*6E
$PQTMINS,793601,0,,,,,,,-nan,-nan,-nan*16
$PQTMIMU,793630,-0.013054,-0.003660,1.010282,0.402500,-1.050000,-0.560000,0,0*61
$PQTMINS,793632,0,,,,,,,-nan,-nan,-nan*16
$PQTMIMU,793661,-0.010736,-0.006466,1.011258,0.507500,-1.050000,-0.647500,0,0*65
$PQTMINS,793662,0,,,,,,,-nan,-nan,-nan*13
$PQTMIMU,793692,-0.012810,-0.010980,1.021384,0.402500,-0.980000,-0.647500,0,0*60
$PQTMINS,793692,0,,,,,,,-nan,-nan,-nan*1C
$PQTMIMU,793721,-0.009516,-0.007930,1.015650,0.490000,-1.050000,-0.682500,0,0*6C
$PQTMINS,793722,0,,,,,,,-nan,-nan,-nan*16
$PQTMIMU,793752,-0.011102,-0.006100,1.012478,0.507500,-1.050000,-0.805000,0,0*6B
$PQTMINS,793753,0,,,,,,,-nan,-nan,-nan*10
$PQTMIMU,793783,-0.009272,-0.009150,1.016260,0.490000,-1.137500,-0.805000,0,0*64
$PQTMINS,793783,0,,,,,,,-nan,-nan,-nan*1D
$PQTMIMU,793812,-0.010492,-0.009516,1.015772,0.490000,-1.050000,-0.857500,0,0*67
$PQTMINS,793813,0,,,,,,,-nan,-nan,-nan*1B
$PQTMIMU,793843,-0.015616,-0.006466,1.015040,0.472500,-1.137500,-0.770000,0,0*64
$PQTMINS,793843,0,,,,,,,-nan,-nan,-nan*1E
$PQTMIMU,793872,-0.026352,-0.005978,1.011624,0.577500,-1.050000,-0.857500,0,0*6C
$PQTMINS,793881,0,,,,,,,-nan,-nan,-nan*10
$PQTMIMU,793911,-0.040260,-0.007930,1.013942,0.402500,-0.945000,-0.892500,0,0*6D
$PQTMINS,793913,0,,,,,,,-nan,-nan,-nan*1A
$PQTMGPS,793935,17063.000,37.338342419,-122.013980239,16.0000,44.4531,0.4903,73.5156,1.0000,0.7813,1.4084,1,28,*78
$GNRMC,044405.00,A,3720.300588,N,12200.838608,W,1.0,73.5,121221,,,A,V*16
$GNGGA,044405.00,3720.300588,N,12200.838608,W,1,20,0.8,44.5,M,-28.5,M,,*70
$GNGLL,3720.300588,N,12200.838608,W,044405.00,A,A*68
$GPGSV,4,1,11,02,36,184,42,06,60,117,43,12,29,302,38,13,05,201,26,1*6F
$GPGSV,4,2,11,14,18,100,36,15,05,228,25,17,31,049,35,19,55,038,45,1*69
$GPGSV,4,3,11,24,56,281,44,1*5D
$GPGSV,4,4,11,06,60,117,46,24,56,281,44,8*66
$GAGSV,4,1,15,102,34,310,37,103,07,242,29,108,,,24,111,67,096,41,6*4E
$GAGSV,4,2,15,112,23,041,22,124,32,106,43,125,74,023,43,136,41,188,43,6*74
$GAGSV,4,3,15,102,34,310,33,103,07,242,24,111,67,096,41,112,23,041,19,1*73
$GAGSV,4,4,15,124,32,106,42,125,74,023,45,136,41,188,40,1*77
$GBGSV,2,1,05,212,18,225,34,224,33,313,34,226,83,280,38,229,26,046,34,1*7C
$GBGSV,2,2,05,235,79,042,42,1*79
$GNGSA,A,3,02,06,12,14,15,17,19,24,,,,,1.4,0.8,1.2,1*31
$GNGSA,A,3,102,103,111,112,124,125,136,,,,,,1.4,0.8,1.2,3*0A
$GNGSA,A,3,212,224,226,229,235,,,,,,,,1.4,0.8,1.2,4*04
$GNGSA,A,3,,,,,,,,,,,,,1.4,0.8,1.2,5*3B
$GNVTG,73.5,T,,M,1.0,N,1.8,K,A*2A
$PQTMIMU,793942,-0.052216,-0.003172,1.016260,0.437500,-0.962500,-0.822500,0,0*60
$PQTMINS,793944,0,,,,,,,-nan,-nan,-nan*18
$PQTMIMU,793973,-0.063806,-0.005124,1.011014,0.437500,-0.805000,-0.962500,0,0*68
$PQTMINS,793982,0,,,,,,,-nan,-nan,-nan*12
$PQTMIMU,794012,-0.067466,-0.007686,1.012112,0.455000,-0.840000,-0.980000,0,0*6F
$PQTMINS,794014,0,,,,,,,-nan,-nan,-nan*13
$PQTMIMU,794044,-0.068198,-0.006222,1.012966,0.507500,-0.857500,-1.015000,0,0*63
$PQTMINS,794046,0,,,,,,,-nan,-nan,-nan*14
$PQTMIMU,794075,-0.069418,-0.005856,1.016382,0.402500,-0.892500,-1.137500,0,0*6A
$PQTMINS,794084,0,,,,,,,-nan,-nan,-nan*1A
$PQTMIMU,794114,-0.073932,-0.004514,1.016504,0.420000,-0.927500,-1.102500,0,0*6C
$PQTMINS,794116,0,,,,,,,-nan,-nan,-nan*10
$PQTMIMU,794145,-0.068320,-0.005368,1.020408,0.297500,-1.050000,-1.242500,0,0*6A
$PQTMINS,794148,0,,,,,,,-nan,-nan,-nan*1B
$PQTMIMU,794177,-0.070882,-0.004514,1.019310,0.367500,-1.155000,-1.155000,0,0*63
$PQTMINS,794186,0,,,,,,,-nan,-nan,-nan*19
$PQTMIMU,794216,-0.069784,-0.003538,1.020530,0.280000,-0.927500,-1.330000,0,0*64
$PQTMINS,794218,0,,,,,,,-nan,-nan,-nan*1D
$PQTMIMU,794247,-0.071980,-0.007564,1.014552,0.297500,-1.102500,-1.277500,0,0*67
$PQTMINS,794250,0,,,,,,,-nan,-nan,-nan*11
